[{"ID":"5905310620","Name":"台南永康藥局","Phone":"(06)2020201","Addr":"臺南市永康區中山南路８１６、８１６－１．２．３號","Lat":23.020971,"Lng":120.247219},{"ID":"5901173747","Name":"躍獅興雅藥局","Phone":"(02)87808429","Addr":"臺北市信義區松德路１２８號","Lat":25.037382,"Lng":121.574458},{"ID":"0145080011","Name":"衛生福利部花蓮醫院豐濱原住民分院","Phone":"8358141","Addr":"花蓮縣豐濱鄉豐濱村光豐路４１號","Lat":23.601916,"Lng":121.5211876},{"ID":"5931102318","Name":"躍獅學府藥局","Phone":"(02)26295603","Addr":"新北市淡水區學府路７７號（１樓）","Lat":25.1700856,"Lng":121.4484292},{"ID":"5903280727","Name":"大樹南屯藥局","Phone":"(04)24758887","Addr":"臺中市南屯區向上路一段６４３號１樓","Lat":24.1466986,"Lng":120.6485878},{"ID":"593106A351","Name":"平安藥局","Phone":"(02)22082368","Addr":"新北市新莊區民安西路６０號２樓","Lat":25.020383,"Lng":121.427195},{"ID":"5931016675","Name":"上嘉藥局","Phone":"(02)22582278","Addr":"新北市板橋區四維路２９６號１樓","Lat":25.0295053,"Lng":121.4629505},{"ID":"5905320733","Name":"大樹大同藥局","Phone":"(06)2158700","Addr":"臺南市東區大同路二段２２７、２２９號１樓","Lat":22.9756613,"Lng":120.21424},{"ID":"0291010010","Name":"連江縣立醫院","Phone":"623995","Addr":"連江縣南竿鄉復興村２１７號","Lat":26.1610014,"Lng":119.9489434}]